[
  { "Studio Name": "1-UP Studio (Nintendo)", "City": "Tokyo", "Country": "Japan", "Latitude": 35.694611, "Longitude": 139.763421 },
  { "Studio Name": "24 Bit Games", "City": "Johannesburg", "Country": "South Africa", "Latitude": -26.204111, "Longitude": 28.047321 },
  { "Studio Name": "4A Games", "City": "Sliema", "Country": "Malta", "Latitude": 35.912211, "Longitude": 14.504212 },
  { "Studio Name": "ACE Team", "City": "Santiago", "Country": "Chile", "Latitude": -33.448911, "Longitude": -70.669321 },
  { "Studio Name": "Aquiris (Epic Games Brazil)", "City": "Porto Alegre", "Country": "Brazil", "Latitude": -30.034611, "Longitude": -51.217721 },
  { "Studio Name": "Arkane Studios (Microsoft)", "City": "Lyon", "Country": "France", "Latitude": 45.764042, "Longitude": 4.835659 },
  { "Studio Name": "Asobo Studio", "City": "Bordeaux", "Country": "France", "Latitude": 44.837789, "Longitude": -0.579180 },
  { "Studio Name": "Avalanche Studios Group", "City": "Stockholm", "Country": "Sweden", "Latitude": 59.314220, "Longitude": 18.071640 },
  { "Studio Name": "Bandai Namco Ent.", "City": "Tokyo", "Country": "Japan", "Latitude": 35.646111, "Longitude": 139.754421 },
  { "Studio Name": "Beenox (Microsoft)", "City": "Quebec City", "Country": "Canada", "Latitude": 46.813878, "Longitude": -71.207981 },
  { "Studio Name": "Behemoth", "City": "San Diego", "Country": "USA", "Latitude": 32.715736, "Longitude": -117.161087 },
  { "Studio Name": "Behold Studios", "City": "Brasília", "Country": "Brazil", "Latitude": -15.794211, "Longitude": -47.882212 },
  { "Studio Name": "Bend Studio (Sony)", "City": "Bend", "Country": "USA", "Latitude": 44.058173, "Longitude": -121.315310 },
  { "Studio Name": "Bethesda Game Studios (Microsoft)", "City": "Rockville", "Country": "USA", "Latitude": 39.083997, "Longitude": -77.152758 },
  { "Studio Name": "BioWare", "City": "Edmonton", "Country": "Canada", "Latitude": 53.546124, "Longitude": -113.493823 },
  { "Studio Name": "Blizzard Entertainment (Microsoft)", "City": "Irvine", "Country": "USA", "Latitude": 33.684567, "Longitude": -117.826505 },
  { "Studio Name": "Bluepoint Games (Sony)", "City": "Austin", "Country": "USA", "Latitude": 30.267153, "Longitude": -97.743059 },
  { "Studio Name": "Bungie (Sony)", "City": "Bellevue", "Country": "USA", "Latitude": 47.610150, "Longitude": -122.201516 },
  { "Studio Name": "Capcom Co., Ltd.", "City": "Osaka", "Country": "Japan", "Latitude": 34.685311, "Longitude": 135.518921 },
  { "Studio Name": "CD Projekt Red", "City": "Warsaw", "Country": "Poland", "Latitude": 52.261812, "Longitude": 21.031521 },
  { "Studio Name": "Celestial Games", "City": "Johannesburg", "Country": "South Africa", "Latitude": -26.204411, "Longitude": 28.041621 },
  { "Studio Name": "ChopUp (Pledge51)", "City": "Lagos", "Country": "Nigeria", "Latitude": 6.453111, "Longitude": 3.395821 },
  { "Studio Name": "Compulsion Games (Microsoft)", "City": "Montreal", "Country": "Canada", "Latitude": 45.497211, "Longitude": -73.579621 },
  { "Studio Name": "ConcernedApe", "City": "Seattle", "Country": "USA", "Latitude": 47.606209, "Longitude": -122.332071 },
  { "Studio Name": "Creative Assembly", "City": "Horsham", "Country": "United Kingdom", "Latitude": 51.062820, "Longitude": -0.325575 },
  { "Studio Name": "Crytek", "City": "Frankfurt am Main", "Country": "Germany", "Latitude": 50.110924, "Longitude": 8.682127 },
  { "Studio Name": "Crystal Dynamics", "City": "San Mateo", "Country": "USA", "Latitude": 37.563012, "Longitude": -122.325512 },
  { "Studio Name": "Deconstructeam", "City": "Valencia", "Country": "Spain", "Latitude": 39.469907, "Longitude": -0.377390 },
  { "Studio Name": "DICE", "City": "Stockholm", "Country": "Sweden", "Latitude": 59.329323, "Longitude": 18.068581 },
  { "Studio Name": "Digital Extremes (Tencent)", "City": "London", "Country": "Canada", "Latitude": 42.984923, "Longitude": -81.245277 },
  { "Studio Name": "Double Fine Productions (Microsoft)", "City": "San Francisco", "Country": "USA", "Latitude": 37.774929, "Longitude": -122.419415 },
  { "Studio Name": "Electronic Arts (EA)", "City": "Redwood City", "Country": "USA", "Latitude": 37.530312, "Longitude": -122.253321 },
  { "Studio Name": "Embracer Group", "City": "Karlstad", "Country": "Sweden", "Latitude": 59.379311, "Longitude": 13.503621 },
  { "Studio Name": "Epic Games", "City": "Cary", "Country": "USA", "Latitude": 35.753711, "Longitude": -78.781012 },
  { "Studio Name": "Fatshark (Tencent)", "City": "Stockholm", "Country": "Sweden", "Latitude": 59.313411, "Longitude": 18.077221 },
  { "Studio Name": "Fire Horse Studio", "City": "São Paulo", "Country": "Brazil", "Latitude": -23.550511, "Longitude": -46.633321 },
  { "Studio Name": "Firesprite (Sony)", "City": "Liverpool", "Country": "United Kingdom", "Latitude": 53.408371, "Longitude": -2.991573 },
  { "Studio Name": "Free Lives", "City": "Cape Town", "Country": "South Africa", "Latitude": -33.924911, "Longitude": 18.424121 },
  { "Studio Name": "Frictional Games", "City": "Helsingborg", "Country": "Sweden", "Latitude": 56.046467, "Longitude": 12.694512 },
  { "Studio Name": "FromSoftware", "City": "Tokyo", "Country": "Japan", "Latitude": 35.676200, "Longitude": 139.650300 },
  { "Studio Name": "Funcom (Tencent)", "City": "Oslo", "Country": "Norway", "Latitude": 59.913868, "Longitude": 10.752245 },
  { "Studio Name": "Game Science (Hangzhou)", "City": "Hangzhou", "Country": "China", "Latitude": 30.274112, "Longitude": 120.155121 },
  { "Studio Name": "Game Science (Shenzhen)", "City": "Shenzhen", "Country": "China", "Latitude": 22.545911, "Longitude": 114.054321 },
  { "Studio Name": "Gearbox Software", "City": "Frisco", "Country": "USA", "Latitude": 33.150674, "Longitude": -96.823611 },
  { "Studio Name": "Giant Sparrow", "City": "Santa Monica", "Country": "USA", "Latitude": 34.019454, "Longitude": -118.491191 },
  { "Studio Name": "Grinding Gear Games (Tencent)", "City": "Auckland", "Country": "New Zealand", "Latitude": -36.848511, "Longitude": 174.763321 },
  { "Studio Name": "GSC Game World", "City": "Kyiv", "Country": "Ukraine", "Latitude": 50.450121, "Longitude": 30.523432 },
  { "Studio Name": "Guerrilla Games (Sony)", "City": "Amsterdam", "Country": "Netherlands", "Latitude": 52.367611, "Longitude": 4.904121 },
  { "Studio Name": "Halo Studios (Microsoft)", "City": "Redmond", "Country": "USA", "Latitude": 47.639611, "Longitude": -122.128312 },
  { "Studio Name": "Haven Studios (Sony)", "City": "Montreal", "Country": "Canada", "Latitude": 45.501689, "Longitude": -73.567256 },
  { "Studio Name": "Hazelight Studios", "City": "Stockholm", "Country": "Sweden", "Latitude": 59.329323, "Longitude": 18.068581 },
  { "Studio Name": "Hello Games", "City": "Guildford", "Country": "United Kingdom", "Latitude": 51.236220, "Longitude": -0.570409 },
  { "Studio Name": "High Moon Studios (Microsoft)", "City": "Carlsbad", "Country": "USA", "Latitude": 33.158093, "Longitude": -117.350596 },
  { "Studio Name": "Housemarque (Sony)", "City": "Helsinki", "Country": "Finland", "Latitude": 60.169855, "Longitude": 24.938379 },
  { "Studio Name": "id Software (Microsoft)", "City": "Richardson", "Country": "USA", "Latitude": 32.948334, "Longitude": -96.729852 },
  { "Studio Name": "Infinity Ward (Microsoft)", "City": "Woodland Hills", "Country": "USA", "Latitude": 34.165352, "Longitude": -118.608975 },
  { "Studio Name": "InnerSloth", "City": "Redmond", "Country": "USA", "Latitude": 47.674012, "Longitude": -122.121512 },
  { "Studio Name": "Insomniac Games (Sony)", "City": "Burbank", "Country": "USA", "Latitude": 34.180812, "Longitude": -118.309012 },
  { "Studio Name": "InXile Entertainment (Microsoft)", "City": "Tustin", "Country": "USA", "Latitude": 33.745851, "Longitude": -117.826166 },
  { "Studio Name": "IO Interactive", "City": "Copenhagen", "Country": "Denmark", "Latitude": 55.676111, "Longitude": 12.568321 },
  { "Studio Name": "iQue, Ltd. (Nintendo China Operations)", "City": "Suzhou", "Country": "China", "Latitude": 31.328411, "Longitude": 120.621212 },
  { "Studio Name": "Iron Gate Studio", "City": "Skövde", "Country": "Sweden", "Latitude": 58.389823, "Longitude": 13.846145 },
  { "Studio Name": "Ironhide Game Studio", "City": "Montevideo", "Country": "Uruguay", "Latitude": -34.901111, "Longitude": -56.164521 },
  { "Studio Name": "King (Microsoft)", "City": "London", "Country": "United Kingdom", "Latitude": 51.514511, "Longitude": -0.129421 },
  { "Studio Name": "Kiro'o Games", "City": "Yaoundé", "Country": "Cameroon", "Latitude": 3.848012, "Longitude": 11.502121 },
  { "Studio Name": "Klei Entertainment (Tencent)", "City": "Vancouver", "Country": "Canada", "Latitude": 49.282729, "Longitude": -123.120738 },
  { "Studio Name": "Koei Tecmo", "City": "Yokohama", "Country": "Japan", "Latitude": 35.443708, "Longitude": 139.638025 },
  { "Studio Name": "Kojima Productions", "City": "Tokyo", "Country": "Japan", "Latitude": 35.626801, "Longitude": 139.743811 },
  { "Studio Name": "Krafton", "City": "Seoul", "Country": "South Korea", "Latitude": 37.503511, "Longitude": 127.041521 },
  { "Studio Name": "Larian Studios", "City": "Ghent", "Country": "Belgium", "Latitude": 51.054311, "Longitude": 3.717421 },
  { "Studio Name": "Leti Arts", "City": "Accra", "Country": "Ghana", "Latitude": 5.603711, "Longitude": -0.187021 },
  { "Studio Name": "Lightspeed Studios (Tencent)", "City": "Shenzhen", "Country": "China", "Latitude": 22.543099, "Longitude": 114.057868 },
  { "Studio Name": "MachineGames (Microsoft)", "City": "Uppsala", "Country": "Sweden", "Latitude": 59.858563, "Longitude": 17.638926 },
  { "Studio Name": "Maddy Makes Games", "City": "Vancouver", "Country": "Canada", "Latitude": 49.282729, "Longitude": -123.120738 },
  { "Studio Name": "Maliyo Games", "City": "Lagos", "Country": "Nigeria", "Latitude": 6.524411, "Longitude": 3.379221 },
  { "Studio Name": "Massive Entertainment", "City": "Malmö", "Country": "Sweden", "Latitude": 55.604981, "Longitude": 13.003822 },
  { "Studio Name": "Media Molecule (Sony)", "City": "Guildford", "Country": "United Kingdom", "Latitude": 51.236220, "Longitude": -0.570409 },
  { "Studio Name": "Mega Crit", "City": "Seattle", "Country": "USA", "Latitude": 47.606209, "Longitude": -122.332071 },
  { "Studio Name": "MercurySteam", "City": "San Sebastián de los Reyes", "Country": "Spain", "Latitude": 40.547462, "Longitude": -3.626620 },
  { "Studio Name": "Microsoft Gaming (Headquarters)", "City": "Redmond", "Country": "USA", "Latitude": 47.639611, "Longitude": -122.128312 },
  { "Studio Name": "miHoYo (HoYoverse)", "City": "Shanghai", "Country": "China", "Latitude": 31.230411, "Longitude": 121.473721 },
  { "Studio Name": "Mobius Digital", "City": "Los Angeles", "Country": "USA", "Latitude": 34.052234, "Longitude": -118.243685 },
  { "Studio Name": "Mojang Studios (Microsoft)", "City": "Stockholm", "Country": "Sweden", "Latitude": 59.332580, "Longitude": 18.064900 },
  { "Studio Name": "Monolith Soft (Nintendo)", "City": "Tokyo", "Country": "Japan", "Latitude": 35.644121, "Longitude": 139.699042 },
  { "Studio Name": "Motion Twin", "City": "Bordeaux", "Country": "France", "Latitude": 44.837789, "Longitude": -0.579180 },
  { "Studio Name": "Naughty Dog (Sony)", "City": "Santa Monica", "Country": "USA", "Latitude": 34.019454, "Longitude": -118.491191 },
  { "Studio Name": "NCSoft", "City": "Pangyo", "Country": "South Korea", "Latitude": 37.401111, "Longitude": 127.108921 },
  { "Studio Name": "NDcube (Nintendo)", "City": "Tokyo", "Country": "Japan", "Latitude": 35.694611, "Longitude": 139.763421 },
  { "Studio Name": "NetEase Games", "City": "Hangzhou", "Country": "China", "Latitude": 30.274112, "Longitude": 120.155121 },
  { "Studio Name": "NetherRealm Studios", "City": "Chicago", "Country": "USA", "Latitude": 41.878114, "Longitude": -87.629798 },
  { "Studio Name": "Next Level Games (Nintendo)", "City": "Vancouver", "Country": "Canada", "Latitude": 49.282729, "Longitude": -123.120738 },
  { "Studio Name": "Niantic, Inc.", "City": "San Francisco", "Country": "USA", "Latitude": 37.774911, "Longitude": -122.419412 },
  { "Studio Name": "Nimble Giant Entertainment", "City": "Buenos Aires", "Country": "Argentina", "Latitude": -34.603711, "Longitude": -58.381621 },
  { "Studio Name": "Ninja Theory (Microsoft)", "City": "Cambridge", "Country": "United Kingdom", "Latitude": 52.205337, "Longitude": 0.121817 },
  { "Studio Name": "Nintendo (Hong Kong) Limited", "City": "Hong Kong", "Country": "China", "Latitude": 22.302511, "Longitude": 114.185632 },
  { "Studio Name": "Nintendo Australia Pty Limited", "City": "Scoresby", "Country": "Australia", "Latitude": -37.894000, "Longitude": 145.234000 },
  { "Studio Name": "Nintendo Benelux (Branch)", "City": "Nieuwegein", "Country": "Netherlands", "Latitude": 52.028611, "Longitude": 5.087221 },
  { "Studio Name": "Nintendo Co., Ltd. (Global Headquarters)", "City": "Kyoto", "Country": "Japan", "Latitude": 34.969821, "Longitude": 135.756204 },
  { "Studio Name": "Nintendo Development Center", "City": "Kyoto", "Country": "Japan", "Latitude": 34.970634, "Longitude": 135.750521 },
  { "Studio Name": "Nintendo of America Inc. (Headquarters)", "City": "Redmond", "Country": "USA", "Latitude": 47.651052, "Longitude": -122.139207 },
  { "Studio Name": "Nintendo of Canada Ltd.", "City": "Burnaby", "Country": "Canada", "Latitude": 49.266211, "Longitude": -123.003142 },
  { "Studio Name": "Nintendo of Europe SE (Headquarters)", "City": "Frankfurt am Main", "Country": "Germany", "Latitude": 50.084121, "Longitude": 8.620432 },
  { "Studio Name": "Nintendo of Korea Co., Ltd.", "City": "Seoul", "Country": "South Korea", "Latitude": 37.561521, "Longitude": 126.972532 },
  { "Studio Name": "Nintendo of Taiwan Co., Ltd.", "City": "Taipei", "Country": "Taiwan", "Latitude": 25.048512, "Longitude": 121.517321 },
  { "Studio Name": "Nintendo Tokyo Branch Office", "City": "Tokyo", "Country": "Japan", "Latitude": 35.694611, "Longitude": 139.763421 },
  { "Studio Name": "Nintendo Uji Plant", "City": "Uji", "Country": "Japan", "Latitude": 34.900012, "Longitude": 135.795044 },
  { "Studio Name": "Nomada Studio", "City": "Barcelona", "Country": "Spain", "Latitude": 41.385064, "Longitude": 2.173404 },
  { "Studio Name": "Obsidian Entertainment (Microsoft)", "City": "Irvine", "Country": "USA", "Latitude": 33.684567, "Longitude": -117.826505 },
  { "Studio Name": "PlatinumGames", "City": "Osaka", "Country": "Japan", "Latitude": 34.704021, "Longitude": 135.494713 },
  { "Studio Name": "Playdead", "City": "Copenhagen", "Country": "Denmark", "Latitude": 55.676098, "Longitude": 12.568337 },
  { "Studio Name": "Playground Games (Microsoft)", "City": "Leamington Spa", "Country": "United Kingdom", "Latitude": 52.288921, "Longitude": -1.533214 },
  { "Studio Name": "PlaySide Studios", "City": "Melbourne", "Country": "Australia", "Latitude": -37.813611, "Longitude": 144.963121 },
  { "Studio Name": "Polyphony Digital (Sony)", "City": "Tokyo", "Country": "Japan", "Latitude": 35.673541, "Longitude": 139.800011 },
  { "Studio Name": "Qene Games", "City": "Addis Ababa", "Country": "Ethiopia", "Latitude": 9.019211, "Longitude": 38.746821 },
  { "Studio Name": "Rare (Microsoft)", "City": "Twycross", "Country": "United Kingdom", "Latitude": 52.646821, "Longitude": -1.503342 },
  { "Studio Name": "Raven Software (Microsoft)", "City": "Middleton", "Country": "USA", "Latitude": 43.097211, "Longitude": -89.504321 },
  { "Studio Name": "Rebellion Developments", "City": "Oxford", "Country": "United Kingdom", "Latitude": 51.752021, "Longitude": -1.257726 },
  { "Studio Name": "Re-Logic", "City": "Indianapolis", "Country": "USA", "Latitude": 39.768403, "Longitude": -86.158068 },
  { "Studio Name": "Remedy Entertainment", "City": "Espoo", "Country": "Finland", "Latitude": 60.177511, "Longitude": 24.739421 },
  { "Studio Name": "Respawn Entertainment", "City": "Sherman Oaks", "Country": "USA", "Latitude": 34.148971, "Longitude": -118.451361 },
  { "Studio Name": "Retro Studios (Nintendo)", "City": "Austin", "Country": "USA", "Latitude": 30.400211, "Longitude": -97.718321 },
  { "Studio Name": "Riot Games (Tencent)", "City": "Los Angeles", "Country": "USA", "Latitude": 34.030452, "Longitude": -118.456312 },
  { "Studio Name": "Roblox Corporation", "City": "San Mateo", "Country": "USA", "Latitude": 37.563012, "Longitude": -122.325512 },
  { "Studio Name": "RocketWerkz", "City": "Auckland", "Country": "New Zealand", "Latitude": -36.840011, "Longitude": 174.760021 },
  { "Studio Name": "Rockstar Games (Take-Two)", "City": "New York City", "Country": "USA", "Latitude": 40.724711, "Longitude": -73.994621 },
  { "Studio Name": "Rockstar North", "City": "Edinburgh", "Country": "United Kingdom", "Latitude": 55.953251, "Longitude": -3.188267 },
  { "Studio Name": "Ryu Ga Gotoku Studio", "City": "Tokyo", "Country": "Japan", "Latitude": 35.621111, "Longitude": 139.730021 },
  { "Studio Name": "Sabotage Studio", "City": "Quebec City", "Country": "Canada", "Latitude": 46.813878, "Longitude": -71.207981 },
  { "Studio Name": "Santa Monica Studio (Sony)", "City": "Los Angeles", "Country": "USA", "Latitude": 33.985045, "Longitude": -118.411132 },
  { "Studio Name": "Sega", "City": "Tokyo", "Country": "Japan", "Latitude": 35.621111, "Longitude": 139.730021 },
  { "Studio Name": "Sega Sammy Holdings", "City": "Tokyo", "Country": "Japan", "Latitude": 35.621111, "Longitude": 139.730021 },
  { "Studio Name": "Sharkmob (Tencent)", "City": "Malmö", "Country": "Sweden", "Latitude": 55.604981, "Longitude": 13.003822 },
  { "Studio Name": "Shift Up", "City": "Seoul", "Country": "South Korea", "Latitude": 37.491258, "Longitude": 127.012112 },
  { "Studio Name": "Shiver Entertainment (Nintendo)", "City": "Miami", "Country": "USA", "Latitude": 25.761681, "Longitude": -80.191788 },
  { "Studio Name": "Sledgehammer Games (Microsoft)", "City": "Foster City", "Country": "USA", "Latitude": 37.558541, "Longitude": -122.271079 },
  { "Studio Name": "Sony Interactive Entertainment (HQ)", "City": "San Mateo", "Country": "USA", "Latitude": 37.560111, "Longitude": -122.285812 },
  { "Studio Name": "Splash Damage (Tencent)", "City": "London", "Country": "United Kingdom", "Latitude": 51.401411, "Longitude": 0.019521 },
  { "Studio Name": "Square Enix", "City": "Tokyo", "Country": "Japan", "Latitude": 35.699712, "Longitude": 139.706121 },
  { "Studio Name": "Subset Games", "City": "Seattle", "Country": "USA", "Latitude": 47.606209, "Longitude": -122.332071 },
  { "Studio Name": "Sucker Punch Productions (Sony)", "City": "Bellevue", "Country": "USA", "Latitude": 47.610150, "Longitude": -122.201516 },
  { "Studio Name": "Supercell (Tencent)", "City": "Helsinki", "Country": "Finland", "Latitude": 60.169911, "Longitude": 24.938421 },
  { "Studio Name": "Supergiant Games", "City": "San Francisco", "Country": "USA", "Latitude": 37.774929, "Longitude": -122.419415 },
  { "Studio Name": "Take-Two Interactive", "City": "New York City", "Country": "USA", "Latitude": 40.758011, "Longitude": -73.985512 },
  { "Studio Name": "Team Asobi (Sony)", "City": "Tokyo", "Country": "Japan", "Latitude": 35.626811, "Longitude": 139.743821 },
  { "Studio Name": "Team Cherry", "City": "Adelaide", "Country": "Australia", "Latitude": -34.928511, "Longitude": 138.600721 },
  { "Studio Name": "Techland", "City": "Wrocław", "Country": "Poland", "Latitude": 51.107885, "Longitude": 17.038538 },
  { "Studio Name": "Tencent Games (HQ)", "City": "Shenzhen", "Country": "China", "Latitude": 22.543111, "Longitude": 114.057921 },
  { "Studio Name": "The Brotherhood", "City": "Cape Town", "Country": "South Africa", "Latitude": -33.918011, "Longitude": 18.423021 },
  { "Studio Name": "The Coalition (Microsoft)", "City": "Vancouver", "Country": "Canada", "Latitude": 49.282729, "Longitude": -123.120738 },
  { "Studio Name": "TiMi Studio Group (Tencent)", "City": "Shenzhen", "Country": "China", "Latitude": 22.543111, "Longitude": 114.057921 },
  { "Studio Name": "Toby Fox", "City": "Boston", "Country": "USA", "Latitude": 42.360082, "Longitude": -71.058880 },
  { "Studio Name": "Treyarch (Microsoft)", "City": "Santa Monica", "Country": "USA", "Latitude": 34.019454, "Longitude": -118.491191 },
  { "Studio Name": "Turn 10 Studios (Microsoft)", "City": "Redmond", "Country": "USA", "Latitude": 47.639611, "Longitude": -122.128312 },
  { "Studio Name": "Turtle Rock Studios (Tencent)", "City": "Lake Forest", "Country": "USA", "Latitude": 33.646922, "Longitude": -117.689211 },
  { "Studio Name": "Ubisoft (Corporate HQ)", "City": "Saint-Mandé", "Country": "France", "Latitude": 48.843011, "Longitude": 2.416212 },
  { "Studio Name": "Ubisoft Montreal", "City": "Montreal", "Country": "Canada", "Latitude": 45.526610, "Longitude": -73.601132 },
  { "Studio Name": "Undead Labs (Microsoft)", "City": "Seattle", "Country": "USA", "Latitude": 47.606211, "Longitude": -122.332081 },
  { "Studio Name": "Unknown Worlds", "City": "San Francisco", "Country": "USA", "Latitude": 37.774929, "Longitude": -122.419415 },
  { "Studio Name": "Usiku Games", "City": "Nairobi", "Country": "Kenya", "Latitude": -1.292111, "Longitude": 36.821921 },
  { "Studio Name": "Valkyrie Entertainment (Sony)", "City": "Seattle", "Country": "USA", "Latitude": 47.606211, "Longitude": -122.332071 },
  { "Studio Name": "Valve Corporation", "City": "Bellevue", "Country": "USA", "Latitude": 47.610150, "Longitude": -122.201516 },
  { "Studio Name": "World's Edge (Microsoft)", "City": "Redmond", "Country": "USA", "Latitude": 47.639611, "Longitude": -122.128312 },
  { "Studio Name": "Wube Software", "City": "Prague", "Country": "Czech Republic", "Latitude": 50.075538, "Longitude": 14.437800 },
  { "Studio Name": "ZeniMax Online Studios (Microsoft)", "City": "Hunt Valley", "Country": "USA", "Latitude": 39.497511, "Longitude": -76.655821 }
]